Airport,Lat,Long
JFK,40.639751,-73.778925
MCO,28.429394,-81.308994
IAH,29.984433,-95.341442
ATL,33.636719,-84.428067
BOS,42.364347,-71.005181
MSP,44.881956,-93.221767
SEA,47.449,-122.309306
SFO,37.618972,-122.374889
PHX,33.434278,-112.011583
LAX,33.942536,-118.408075
DEN,39.861656,-104.673178
CLT,35.214,-80.943139
BWI,39.175361,-76.668333
ORD,41.978603,-87.904842
SLC,40.788389,-111.977772
DTW,42.212444,-83.353389
DFW,32.896828,-97.037997
LAS,36.236197,-115.034253